{"total_entries":15,"per_page":25,"current_page":1,"restaurants":[{"id":88333,"name":"Agave","address":"194 Castro Street","city":"Mountain View","state":"CA","area":"San Francisco Bay Area","postal_code":"94041","country":"US","phone":"6509696767x","lat":null,"lng":null,"price":null,"reserve_url":"http://www.opentable.com/single.aspx?rid=88333","mobile_reserve_url":"http://mobile.opentable.com/opentable/?restId=88333","image_url":"https://www.opentable.com/img/restimages/88333.jpg"},{"id":42046,"name":"Bushido","address":"156 Castro Street","city":"Mountain View","state":"CA","area":"San Francisco Bay Area","postal_code":"94041","country":"US","phone":"6503866821","lat":null,"lng":null,"price":null,"reserve_url":"http://www.opentable.com/single.aspx?rid=42046","mobile_reserve_url":"http://mobile.opentable.com/opentable/?restId=42046","image_url":"https://www.opentable.com/img/restimages/42046.jpg"},{"id":2819,"name":"Cascal","address":"400 Castro St.","city":"Mountain View","state":"CA","area":"San Francisco Bay Area","postal_code":"94041","country":"US","phone":"6509409500","lat":null,"lng":null,"price":null,"reserve_url":"http://www.opentable.com/single.aspx?rid=2819","mobile_reserve_url":"http://mobile.opentable.com/opentable/?restId=2819","image_url":"https://www.opentable.com/img/restimages/2819.jpg"},{"id":3467,"name":"Chez TJ","address":"938 Villa Street","city":"Mountain View","state":"CA","area":"San Francisco Bay Area","postal_code":"94041","country":"US","phone":"6509647466x","lat":null,"lng":null,"price":null,"reserve_url":"http://www.opentable.com/single.aspx?rid=3467","mobile_reserve_url":"http://mobile.opentable.com/opentable/?restId=3467","image_url":"https://www.opentable.com/img/restimages/3467.jpg"},{"id":19213,"name":"Ristorante Don Giovanni - Mountain View","address":"235 Castro Street","city":"Mountain View","state":"CA","area":"San Francisco Bay Area","postal_code":"94041","country":"US","phone":"6509619749","lat":null,"lng":null,"price":null,"reserve_url":"http://www.opentable.com/single.aspx?rid=19213","mobile_reserve_url":"http://mobile.opentable.com/opentable/?restId=19213","image_url":"https://www.opentable.com/img/restimages/19213.jpg"},{"id":32086,"name":"Sakoon","address":"357 Castro Street","city":"Mountain View","state":"CA","area":"San Francisco Bay Area","postal_code":"94041","country":"US","phone":"6509652000","lat":null,"lng":null,"price":null,"reserve_url":"http://www.opentable.com/single.aspx?rid=32086","mobile_reserve_url":"http://mobile.opentable.com/opentable/?restId=32086","image_url":"https://www.opentable.com/img/restimages/32086.jpg"},{"id":5346,"name":"Scott's Seafood Mountain View (fka The Cantankerous Fish)","address":"420 Castro St","city":"Mountain View","state":"CA","area":"San Francisco Bay Area","postal_code":"94041","country":"US","phone":"6509668124","lat":null,"lng":null,"price":null,"reserve_url":"http://www.opentable.com/single.aspx?rid=5346","mobile_reserve_url":"http://mobile.opentable.com/opentable/?restId=5346","image_url":"https://www.opentable.com/img/restimages/5346.jpg"},{"id":56503,"name":"Scratch (Mtn View)","address":"401 Castro Street","city":"Mountain View","state":"CA","area":"San Francisco Bay Area","postal_code":"94041","country":"US","phone":"6502373132x","lat":null,"lng":null,"price":null,"reserve_url":"http://www.opentable.com/single.aspx?rid=56503","mobile_reserve_url":"http://mobile.opentable.com/opentable/?restId=56503","image_url":"https://www.opentable.com/img/restimages/56503.jpg"},{"id":4056,"name":"Shiva's","address":"800 California #100","city":"Mountain View","state":"CA","area":"San Francisco Bay Area","postal_code":"94041","country":"US","phone":"6509603802","lat":null,"lng":null,"price":null,"reserve_url":"http://www.opentable.com/single.aspx?rid=4056","mobile_reserve_url":"http://mobile.opentable.com/opentable/?restId=4056","image_url":"https://www.opentable.com/img/restimages/4056.jpg"},{"id":90784,"name":"Vaso Azzurro","address":"108 Castro Street","city":"Mountain View","state":"CA","area":"San Francisco Bay Area","postal_code":"94041","country":"US","phone":"6509401717","lat":null,"lng":null,"price":null,"reserve_url":"http://www.opentable.com/single.aspx?rid=90784","mobile_reserve_url":"http://mobile.opentable.com/opentable/?restId=90784","image_url":"https://www.opentable.com/img/restimages/90784.jpg"},{"id":108922,"name":"Xanh Restaurant","address":"110 Castro Street","city":"Mountain View","state":"CA","area":"San Francisco Bay Area","postal_code":"94041","country":"US","phone":"6509641888","lat":null,"lng":null,"price":null,"reserve_url":"http://www.opentable.com/single.aspx?rid=108922","mobile_reserve_url":"http://mobile.opentable.com/opentable/?restId=108922","image_url":"https://www.opentable.com/img/restimages/108922.jpg"},{"id":117523,"name":"191 Restaurant","address":"191 Castro Street","city":"Mountain View","state":"CA","area":"San Francisco Bay Area","postal_code":"94041","country":"US","phone":"6509611491","lat":null,"lng":null,"price":null,"reserve_url":"http://www.opentable.com/single.aspx?rid=117523","mobile_reserve_url":"http://mobile.opentable.com/opentable/?restId=117523","image_url":"https://www.opentable.com/img/restimages/117523.jpg"},{"id":115984,"name":"Cijjo Restaurant & Lounge","address":"246 Castro Street","city":"MountainView","state":"CA","area":"San Francisco Bay Area","postal_code":"94041","country":"US","phone":"650-282-5401x","lat":null,"lng":null,"price":null,"reserve_url":"http://www.opentable.com/single.aspx?rid=115984","mobile_reserve_url":"http://mobile.opentable.com/opentable/?restId=115984","image_url":"https://www.opentable.com/img/restimages/115984.jpg"},{"id":111313,"name":"La Fontaine Restaurant","address":"186 Castro Street","city":"Mountain View","state":"CA","area":"San Francisco Bay Area","postal_code":"94041","country":"US","phone":"6509682300x","lat":null,"lng":null,"price":null,"reserve_url":"http://www.opentable.com/single.aspx?rid=111313","mobile_reserve_url":"http://mobile.opentable.com/opentable/?restId=111313","image_url":"https://www.opentable.com/img/restimages/111313.jpg"},{"id":139504,"name":"Park Balluchi","address":"288 Castro Street","city":"Mountain View","state":"CA","area":"San Francisco Bay Area","postal_code":"94041","country":"US","phone":"6509601000","lat":null,"lng":null,"price":null,"reserve_url":"http://www.opentable.com/single.aspx?rid=139504","mobile_reserve_url":"http://mobile.opentable.com/opentable/?restId=139504","image_url":"https://www.opentable.com/img/restimages/139504.jpg"}]}
